[
  {
    "name": "Tech hub",
    "description": "Whitefield",
    "address": "Whitefield, Bangalore, Karnataka",
    "entries": "3800",
    "exits": "3900",
    "code": "WHIT",
    "coordinates": [77.750493, 12.9698]
  },
  {
    "name": "Historical landmark",
    "description": "Kempegowda Majestic",
    "address": "Majestic, Bangalore, Karnataka",
    "entries": "7000",
    "exits": "7200",
    "code": "KEMP",
    "coordinates": [77.572898, 12.977912]
  },
  {
    "name": "Hip nightlife",
    "description": "Indiranagar",
    "address": "Indiranagar, Bangalore, Karnataka",
    "entries": "4500",
    "exits": "4600",
    "code": "INDI",
    "coordinates": [77.640467, 12.973291]
  },
  {
    "name": "Residential charm",
    "description": "Jayanagar",
    "address": "Jayanagar, Bangalore, Karnataka",
    "entries": "4800",
    "exits": "4900",
    "code": "JAYA",
    "coordinates": [77.581482, 12.930788]
  },
  {
    "name": "Shopping paradise",
    "description": "Commercial Street",
    "address": "Commercial Street, Bangalore, Karnataka",
    "entries": "5200",
    "exits": "5300",
    "code": "COMM",
    "coordinates": [77.605956, 12.982168]
  },
  {
    "name": "Cultural hub",
    "description": "Ravindra Kalakshetra",
    "address": "J.C. Road, Bangalore, Karnataka",
    "entries": "3200",
    "exits": "3300",
    "code": "RAVI",
    "coordinates": [77.574812, 12.967095]
  },
  {
    "name": "Green oasis",
    "description": "Lalbagh Botanical Garden",
    "address": "Lalbagh, Bangalore, Karnataka",
    "entries": "4500",
    "exits": "4600",
    "code": "LALB",
    "coordinates": [77.583854, 12.950742]
  },
  {
    "name": "Educational hub",
    "description": "Koramangala",
    "address": "Koramangala, Bangalore, Karnataka",
    "entries": "6200",
    "exits": "6300",
    "code": "KORA",
    "coordinates": [77.622827, 12.935772]
  },
  {
    "name": "Tech park",
    "description": "Electronic City",
    "address": "Electronic City, Bangalore, Karnataka",
    "entries": "5200",
    "exits": "5100",
    "code": "ELEC",
    "coordinates": [77.667072, 12.845586]
  },
  {
    "name": "Historical fort",
    "description": "Bangalore Fort",
    "address": "Bangalore Fort, Bangalore, Karnataka",
    "entries": "3800",
    "exits": "3700",
    "code": "FORT",
    "coordinates": [77.576139, 12.962953]
  },
  {
    "name": "Art district",
    "description": "Shivajinagar",
    "address": "Shivajinagar, Bangalore, Karnataka",
    "entries": "5200",
    "exits": "5300",
    "code": "SHIV",
    "coordinates": [77.600367, 12.983883]
  },
  {
    "name": "Lake view",
    "description": "Ulsoor",
    "address": "Ulsoor, Bangalore, Karnataka",
    "entries": "3800",
    "exits": "3900",
    "code": "ULSO",
    "coordinates": [77.626523, 12.982202]
  },
  {
    "name": "Shopping hub",
    "description": "Brigade Road",
    "address": "Brigade Road, Bangalore, Karnataka",
    "entries": "4500",
    "exits": "4600",
    "code": "BRIG",
    "coordinates": [77.607518, 12.974944]
  },
  {
    "name": "Lively market",
    "description": "Malleswaram",
    "address": "Malleswaram, Bangalore, Karnataka",
    "entries": "4200",
    "exits": "4300",
    "code": "MALL",
    "coordinates": [77.570397, 13.007707]
  },
  {
    "name": "Scenic view",
    "description": "Sankey Tank",
    "address": "Sankey Tank, Bangalore, Karnataka",
    "entries": "3200",
    "exits": "3100",
    "code": "SANK",
    "coordinates": [77.581961, 13.006072]
  },
  {
    "name": "IT hub",
    "description": "Manyata Tech Park",
    "address": "Manyata Tech Park, Bangalore, Karnataka",
    "entries": "5500",
    "exits": "5600",
    "code": "MANY",
    "coordinates": [77.635171, 13.047223]
  },
  {
    "name": "Heritage temple",
    "description": "Bull Temple",
    "address": "Bull Temple, Bangalore, Karnataka",
    "entries": "4600",
    "exits": "4700",
    "code": "BULL",
    "coordinates": [77.570426, 12.940968]
  },
  {
    "name": "Nature retreat",
    "description": "Bannerghatta National Park",
    "address": "Bannerghatta Road, Bangalore, Karnataka",
    "entries": "3800",
    "exits": "3900",
    "code": "BANN",
    "coordinates": [77.577187, 12.800603]
  },
  {
    "name": "Tech corridor",
    "description": "Outer Ring Road",
    "address": "Outer Ring Road, Bangalore, Karnataka",
    "entries": "6500",
    "exits": "6600",
    "code": "RING",
    "coordinates": [77.697982, 12.934077]
  },
  {
    "name": "Innovative zone",
    "description": "Manyata Embassy Business Park",
    "address": "Nagawara, Bangalore, Karnataka",
    "entries": "5800",
    "exits": "5900",
    "code": "EMBA",
    "coordinates": [77.620553, 13.048518]
  }
]
